{
"type": "FeatureCollection",
"crs": { "type": "name", "properties": { "name": "urn:ogc:def:crs:OGC:1.3:CRS84" } },
                                                                                
"features": [
{ "type": "Feature", "properties": { "name": "SweetWater Brewing Company", "lat": 33.808000, "lon": -84.380000, "type": "brewery", "url": "www.sweetwaterbrew.com", "logo": "images/breweries/sweetwater.png" }, "geometry": { "type": "Point", "coordinates": [ -84.38, 33.808 ] } },
{ "type": "Feature", "properties": { "name": "Monday Night Brewing", "lat": 33.794000, "lon": -84.409000, "type": "brewery", "url": "www.mondaynightbrewing.com", "logo": "images/breweries/mondaynight.jpg" }, "geometry": { "type": "Point", "coordinates": [ -84.409, 33.794 ] } },
{ "type": "Feature", "properties": { "name": "Three Taverns Brewery", "lat": 33.772000, "lon": -84.280000, "type": "brewery", "url": "www.threetavernsbrewery.com", "logo": "images/breweries/threetaverns.jpg" }, "geometry": { "type": "Point", "coordinates": [ -84.28, 33.772 ] } },
{ "type": "Feature", "properties": { "name": "Red Brick Brewing", "lat": 33.818000, "lon": -84.434000, "type": "brewery", "url": "www.redbrickbrewing.com", "logo": "images/breweries/redbrick.jpg" }, "geometry": { "type": "Point", "coordinates": [ -84.434, 33.818 ] } },
{ "type": "Feature", "properties": { "name": "Jekyll Brewing", "lat": 34.086000, "lon": -84.247000, "type": "brewery", "url": "www.jekyllbrewing.com", "images": "images/breweries/jekyll.jpg" }, "geometry": { "type": "Point", "coordinates": [ -84.247, 34.086 ] } },
{ "type": "Feature", "properties": { "name": "Red Hare Brewing", "lat": 33.924000, "lon": -84.495000, "type": "brewery", "url": "www.redharebrewing.com", "logo": "images/breweries/redhare.jpg" }, "geometry": { "type": "Point", "coordinates": [ -84.495, 33.924 ] } },
{ "type": "Feature", "properties": { "name": "Orpheus Brewing", "lat": 33.793000, "lon": -84.368000, "type": "brewery", "url": "www.orpheusbrewing.com", "logo": "images/breweries/orpheus.jpg" }, "geometry": { "type": "Point", "coordinates": [ -84.368, 33.793 ] } },
{ "type": "Feature", "properties": { "name": "5 Seasons Brewing", "lat": 33.908000, "lon": -84.380000, "type": "brewery", "url": "www.5seasonsbrewing.com", "logo": "images/breweries/fiveseasons.gif" }, "geometry": { "type": "Point", "coordinates": [ -84.38, 33.908 ] } },
{ "type": "Feature", "properties": { "name": "BlueTarp Brewing Company", "lat": 33.773000, "lon": -84.283000, "type": "brewery", "url": "www.bluetarpbrew.com", "logo": "images/breweries/bluetarp.jpg" }, "geometry": { "type": "Point", "coordinates": [ -84.283, 33.773 ] } },
{ "type": "Feature", "properties": { "name": "Jailhouse Brewing Company", "lat": 33.386000, "lon": -84.282000, "type": "brewery", "url": "www.jailhousebrewing.com", "logo": "images/breweries/jailhouse.jpg" }, "geometry": { "type": "Point", "coordinates": [ -84.282, 33.386 ] } },
{ "type": "Feature", "properties": { "name": "Eventide Brewing", "lat": 33.726000, "lon": -84.377000, "type": "brewery", "url": "www.eventidebrewing.com", "logo": "images/breweries/eventide.jpg" }, "geometry": { "type": "Point", "coordinates": [ -84.377, 33.726 ] } },
{ "type": "Feature", "properties": { "name": "Creature Comforts Brewing Company", "lat": 33.959000, "lon": -83.380000, "type": "brewery", "url": "www.creaturecomfortsbeer.com", "logo": "images/breweries/creature.png" }, "geometry": { "type": "Point", "coordinates": [ -83.38, 33.959 ] } },
{ "type": "Feature", "properties": { "name": "Terrapin Beer Company", "lat": 33.980000, "lon": -83.396000, "type": "brewery", "url": "www.terrapinbeer.com", "logo": "images/breweries/terrapin.jpg" }, "geometry": { "type": "Point", "coordinates": [ -83.396, 33.98 ] } },
{ "type": "Feature", "properties": { "name": "Reformation Brewery", "lat": 34.101000, "lon": -84.505000, "type": "brewery", "url": "www.reformationbrewery.com", "logo": "images/breweries/reformation.png" }, "geometry": { "type": "Point", "coordinates": [ -84.505, 34.101 ] } },
{ "type": "Feature", "properties": { "name": "Wild Heaven Craft Beers", "lat": 33.776000, "lon": -84.275000, "type": "brewery", "url": "www.wildheavencraftbeers.com", "logo": "images/breweries/wildheaven.jpg" }, "geometry": { "type": "Point", "coordinates": [ -84.275, 33.776 ] } },
{ "type": "Feature", "properties": { "name": "Burnt Hickory Brewery", "lat": 34.033000, "lon": -84.616000, "type": "brewery", "url": "www.burnthickorybrewery.com", "logo": "images/breweries/burnthickory.png" }, "geometry": { "type": "Point", "coordinates": [ -84.616, 34.033 ] } },
{ "type": "Feature", "properties": { "name": "Wrecking Bar Brewpub", "lat": 33.762000, "lon": -84.349000, "type": "brew pub", "url": "www.wreckingbarbrewpub.com", "logo": "images/breweries/wreckingbar.png" }, "geometry": { "type": "Point", "coordinates": [ -84.349, 33.762 ] } },
{ "type": "Feature", "properties": { "name": "Max Lager's Wood-Fired Grill & Brewery", "lat": 33.763000, "lon": -84.387000, "type": "brew pub", "url": "www.maxlagers.com", "logo": "images/breweries/maxlagers.gif" }, "geometry": { "type": "Point", "coordinates": [ -84.387, 33.763 ] } }
]
}
